City_ID,City,Lat,Lng,Max Temp,Humidity,Cloudiness,Wind Speed,Country,Date
0,lorengau,-2.0226,147.2712,300.67,82,100,2.59,PG,1714760960
1,waitangi,-43.9535,-176.5597,282.49,82,91,3.58,NZ,1714760960
2,turpan,42.9333,89.1667,297.45,12,76,0.77,CN,1714760960
3,kingston,17.997,-76.7936,303.68,70,40,8.23,JM,1714760753
4,nogliki,51.8333,143.1667,271.67,92,26,3.13,RU,1714760960
5,qaqortoq,60.7167,-46.0333,276.9,44,0,8.84,GL,1714760958
6,tura,25.5198,90.2201,296.29,40,3,2.35,IN,1714760961
7,yellowknife,62.456,-114.3525,281.16,48,20,3.09,CA,1714760851
8,ushuaia,-54.8,-68.3,279.94,81,40,0.51,AR,1714760675
9,lihue,21.9789,-159.3672,299.73,72,100,8.23,US,1714760961
10,edinburgh of the seven seas,-37.0676,-12.3116,289.95,93,100,21.84,SH,1714760961
11,longyearbyen,78.2186,15.6401,271.06,74,0,1.54,SJ,1714760961
12,bilibino,68.0546,166.4372,261.77,77,19,1.95,RU,1714760961
13,laojunmiao,39.8333,97.7333,283.03,26,38,1.21,CN,1714760962
14,petropavlovsk-kamchatsky,53.0452,158.6483,273.96,78,100,3.58,RU,1714760962
15,bethel,41.3712,-73.414,292.34,60,75,3.6,US,1714760808
16,karratha,-20.7377,116.8463,296.51,51,0,2.23,AU,1714760962
17,maksatikha,57.797,35.8825,274.9,54,0,1.13,RU,1714760962
18,susuman,62.7833,148.1667,265.92,94,54,1.79,RU,1714760962
19,stanley,54.868,-1.6985,285.92,89,75,4.63,GB,1714760768
20,ilulissat,69.2167,-51.1,268.16,68,75,4.12,GL,1714760963
21,ust-nera,64.5667,143.2,269.03,96,100,2.3,RU,1714760963
22,tanjungagung,-3.9333,103.8,297.52,98,100,1.13,ID,1714760963
23,olonkinbyen,70.9221,-8.7187,269.67,83,100,8.06,SJ,1714760963
24,grytviken,-54.2811,-36.5092,273.48,80,73,2.31,GS,1714760963
25,jamestown,42.097,-79.2353,301.22,33,0,3.09,US,1714760814
26,haiku-pauwela,20.9219,-156.3051,298.27,88,40,5.66,US,1714760963
27,adamstown,-25.066,-130.1015,293.6,58,6,5.84,PN,1714760963
28,rouyn-noranda,48.2398,-79.0288,289.2,67,100,3.6,CA,1714760964
29,waat,51.1454,6.4958,289.21,79,0,1.54,DE,1714760964
30,barkhan,29.8977,69.5256,297.73,30,88,1.96,PK,1714760964
31,feijo,-8.1642,-70.3536,302.73,80,76,1.61,BR,1714760964
32,port-aux-francais,-49.35,70.2167,276.36,64,63,15.56,TF,1714760964
33,dudinka,69.4058,86.1778,260.19,95,100,3.13,RU,1714760784
34,tsiombe,-25.3,45.4833,294.33,73,41,6.79,MG,1714760964
35,badger,64.8,-147.5333,281.48,44,100,2.57,US,1714760964
36,hithadhoo,-0.6,73.0833,302.63,76,47,2.97,MV,1714760965
37,puerto ayora,-0.7393,-90.3518,301.13,71,58,3.95,EC,1714760965
38,isafjordur,66.0755,-23.124,280.17,76,100,2.57,IS,1714760965
39,blackmans bay,-43.0167,147.3167,282.44,94,97,1.53,AU,1714760965
40,suva,-18.1416,178.4415,298.86,94,75,3.09,FJ,1714760965
41,wailua homesteads,22.0669,-159.378,299.39,78,100,8.23,US,1714760965
42,la'ie,21.6477,-157.9253,298.4,74,46,3.13,US,1714760965
43,whitehorse,60.7161,-135.0538,284.87,36,40,7.72,CA,1714760675
44,hasaki,35.7333,140.8333,284.37,73,0,4.01,JP,1714760966
45,hadibu,12.65,54.0333,300.85,81,100,2.59,YE,1714760966
46,iskateley,67.6803,53.1512,267.05,92,96,2.24,RU,1714760966
47,pisco,-13.7,-76.2167,296.18,78,75,4.63,PE,1714760724
48,ulladulla,-35.35,150.4667,287.02,87,100,2.17,AU,1714760966
49,selfoss,63.9331,-20.9971,280.95,94,100,6.75,IS,1714760966
50,constantia,44.1833,28.65,286.53,89,100,2.32,RO,1714760966
51,waingapu,-9.6567,120.2641,297.79,82,54,4.27,ID,1714760736
52,iqaluit,63.7506,-68.5145,270.0,68,100,5.14,CA,1714760966
53,udachny,66.4167,112.4,263.4,93,19,1.81,RU,1714760967
54,lompoc,34.6391,-120.4579,295.84,84,100,2.57,US,1714760967
55,yarmouth,41.7057,-70.2286,286.46,75,75,6.71,US,1714760914
56,calama,-22.4667,-68.9333,293.42,37,0,9.26,CL,1714760967
57,tiksi,71.6872,128.8694,263.32,98,79,2.38,RU,1714760967
58,garissa,-0.4536,39.6401,302.71,64,96,8.99,KE,1714760967
59,eyl,7.9803,49.8164,299.43,82,100,3.62,SO,1714760967
60,ciudad de chiautla de tapia,18.2981,-98.6053,311.49,16,67,1.15,MX,1714760967
61,rongelap,11.1635,166.8941,300.4,81,98,8.92,MH,1714760967
62,puerto natales,-51.7236,-72.4875,278.4,93,100,1.03,CL,1714760968
63,anatuya,-28.4606,-62.8347,287.91,68,100,3.72,AR,1714760968
64,yunfu,22.9306,112.0373,295.83,100,100,1.14,CN,1714760115
65,namibe,-15.1961,12.1522,295.98,81,100,4.52,AO,1714760968
66,amga,60.8953,131.9608,274.82,99,100,0.92,RU,1714760968
67,shantobe,52.4581,68.1839,279.78,90,75,5.59,KZ,1714760968
68,ankang,32.68,109.0172,285.91,95,100,1.26,CN,1714760389
69,akureyri,65.6835,-18.0878,283.11,62,40,3.6,IS,1714760969
70,san luis de la loma,17.2706,-100.8939,304.16,50,75,5.35,MX,1714760969
71,kuragino,53.8975,92.6725,281.9,89,58,1.63,RU,1714760969
72,albany,42.6001,-73.9662,295.42,49,91,1.34,US,1714760726
73,thompson,55.7435,-97.8558,277.24,70,100,4.63,CA,1714760969
74,margaret river,-33.95,115.0667,288.21,79,62,4.56,AU,1714760969
75,hammerfest,70.6634,23.6821,276.4,100,75,1.03,NO,1714760969
76,ribeira grande,38.5167,-28.7,291.37,94,75,10.8,PT,1714760969
77,college,64.8569,-147.8028,281.53,48,100,2.57,US,1714760969
78,hamilton,39.1834,-84.5333,296.5,78,100,5.14,US,1714760970
79,aoulef,26.9667,1.0833,305.97,5,0,2.85,DZ,1714760970
80,kharar,30.7444,76.6478,303.13,17,100,3.42,IN,1714760970
81,taksimo,56.3444,114.8794,273.58,72,100,0.69,RU,1714760970
82,fort st. john,56.2499,-120.8529,287.09,35,75,3.6,CA,1714760970
83,smithers,54.7804,-127.1743,287.33,41,75,2.57,CA,1714760970
84,argostolion,38.1811,20.489,290.19,72,20,4.63,GR,1714760970
85,invercargill,-46.4,168.35,282.05,86,85,5.36,NZ,1714760970
86,bratsk,56.1325,101.6142,282.42,87,100,0.74,RU,1714760970
87,pangody,65.85,74.4859,263.0,96,100,2.72,RU,1714760971
88,malango,-2.9627,119.9001,293.24,95,100,1.03,ID,1714760971
89,uturoa,-16.7333,-151.4333,301.09,74,73,9.16,PF,1714760971
90,klyuchi,52.2667,79.1667,278.42,88,49,3.0,RU,1714760971
91,labrador city,52.9463,-66.9114,277.1,75,75,3.6,CA,1714760971
92,minas de marcona,-15.2119,-75.1103,290.74,80,86,9.56,PE,1714760971
93,port elizabeth,-33.918,25.5701,302.09,55,0,0.89,ZA,1714760865
94,kodiak,57.79,-152.4072,278.88,100,100,5.66,US,1714760972
95,plettenberg bay,-34.0527,23.3716,301.85,26,3,5.15,ZA,1714760972
96,alachua,29.7086,-82.3332,305.39,46,40,2.06,US,1714760972
97,pak phanang,8.3511,100.202,301.63,79,96,1.86,TH,1714760972
98,chardara,41.2547,67.9692,293.15,60,100,7.42,KZ,1714760973
99,port mathurin,-19.6833,63.4167,299.54,80,64,2.34,MU,1714760973
100,bikenibeu village,1.3673,173.1241,301.13,83,20,2.57,KI,1714760973
101,avarua,-21.2078,-159.775,298.18,94,75,8.23,CK,1714760973
102,tofol,5.3248,163.0078,301.03,81,100,8.45,FM,1714760973
103,vilyuchinsk,52.9306,158.4028,274.78,98,99,1.79,RU,1714760973
104,papatowai,-46.5619,169.4708,282.26,79,99,5.69,NZ,1714760973
105,papao,-17.75,-149.55,300.97,81,100,10.49,PF,1714760973
106,klaksvik,62.2266,-6.589,284.66,94,40,5.26,FO,1714760974
107,selkirk,50.1436,-96.8845,284.23,88,100,2.68,CA,1714760974
108,yerofey pavlovich,53.9667,121.9667,272.09,75,100,1.81,RU,1714760974
109,heihe,50.2441,127.4902,280.62,40,98,1.94,CN,1714760974
110,box elder,41.5005,-112.8764,280.52,56,13,1.81,US,1714760974
111,lucapa,-8.4192,20.7447,295.08,46,3,1.13,AO,1714760974
112,pingxiang,27.6167,113.85,291.17,99,100,1.46,CN,1714760974
113,codrington,-38.2667,141.9667,282.45,94,80,2.85,AU,1714760975
114,tchintabaraden,15.8969,5.7985,311.18,7,0,5.41,NE,1714760975
115,georgetown,5.4112,100.3354,301.45,86,40,3.09,MY,1714760975
116,namtsy,62.7161,129.6658,273.64,84,95,1.58,RU,1714760975
117,constitucion,-35.3333,-72.4167,285.46,64,75,3.13,CL,1714760975
118,naples,40.8333,14.25,289.49,78,40,6.17,IT,1714760882
119,mudgee,-32.5943,149.5871,286.27,88,100,2.42,AU,1714760975
120,crane,31.3974,-102.3501,302.21,45,24,6.85,US,1714760975
121,newman,37.3138,-121.0208,297.17,43,0,5.81,US,1714760903
122,carnarvon,-24.8667,113.6333,296.05,77,5,10.53,AU,1714760976
123,er regueb,34.8593,9.7865,293.28,43,41,8.22,TN,1714760976
124,weno,7.4515,151.8468,301.12,94,75,4.12,FM,1714760976
125,itoman,26.1247,127.6694,297.16,88,100,1.54,JP,1714760976
126,russellville,35.2784,-93.1338,298.24,71,0,2.06,US,1714760976
127,malakal,9.5334,31.6605,308.76,11,97,2.29,SS,1714760976
128,argo,37.6333,22.7333,289.04,56,1,4.71,GR,1714760976
129,alofi,-19.0595,-169.9187,297.09,94,20,1.03,NU,1714760977
130,guiuan,11.0333,125.7247,301.2,75,86,5.52,PH,1714760977
131,ancud,-41.8697,-73.8203,283.93,90,99,3.76,CL,1714760977
132,hermanus,-34.4187,19.2345,288.04,72,25,2.75,ZA,1714760977
133,hobyo,5.3505,48.5268,302.84,78,100,6.04,SO,1714760977
134,valparaiso,-33.0393,-71.6273,293.78,48,0,4.63,CL,1714760745
135,palikir - national government center,6.9248,158.1611,300.56,78,100,4.63,FM,1714760977
136,grantsville,40.5999,-112.4644,285.98,46,40,3.09,US,1714760978
137,nadi,-17.8,177.4167,297.15,88,40,1.54,FJ,1714760978
138,puerto aysen,-45.4,-72.7,278.4,100,100,1.86,CL,1714760978
139,gouyave,12.1646,-61.7296,303.58,70,20,8.23,GD,1714760978
140,kizner,56.2749,51.508,273.75,74,73,4.97,RU,1714760978
141,mount isa,-20.7333,139.5,294.02,52,36,5.14,AU,1714760978
142,buka,40.8108,69.1986,292.68,48,100,1.49,UZ,1714760978
143,kalamata,37.0389,22.1142,290.02,55,20,3.6,GR,1714760978
144,st. john's,47.5649,-52.7093,279.9,95,100,8.05,CA,1714760932
145,hawaiian paradise park,19.5933,-154.9731,295.95,96,100,3.09,US,1714760979
146,fortuna,40.5982,-124.1573,290.89,60,75,1.34,US,1714760979
147,mokhsogollokh,61.4681,128.9203,276.61,79,100,1.87,RU,1714760974
148,puerto armuelles,8.2833,-82.8667,305.14,72,52,0.45,PA,1714760979
149,yarkovo,57.4028,67.0786,276.34,92,100,2.01,RU,1714760979
150,puerto carreno,6.189,-67.4859,307.14,55,20,3.09,CO,1714760979
151,paita,-5.0892,-81.1144,297.16,69,96,4.66,PE,1714760979
152,utrik,11.2278,169.8474,300.35,79,99,8.46,MH,1714760980
153,nyurba,63.2842,118.3319,270.08,99,97,0.8,RU,1714760980
154,nieuw amsterdam,5.8833,-55.0833,306.24,74,75,5.14,SR,1714760980
155,atherton,53.5237,-2.4935,286.09,91,100,2.87,GB,1714760980
156,yuzhno-kurilsk,44.0306,145.8556,276.14,90,91,7.97,RU,1714760980
157,yei,4.095,30.6779,295.21,76,95,2.0,SS,1714760980
158,inhambane,-23.865,35.3833,296.14,78,40,2.06,MZ,1714760980
159,sola,-13.8833,167.55,301.12,81,68,11.54,VU,1714760981
160,durham,36.0335,-78.8664,305.48,55,75,3.6,US,1714760851
161,lashio,22.9333,97.75,291.9,61,3,0.26,MM,1714760981
162,zhezqazghan,47.7833,67.7667,292.06,33,100,2.21,KZ,1714760981
163,cabugao,17.7931,120.4578,300.07,76,4,2.75,PH,1714760981
164,nong phai,15.9903,101.0618,303.6,54,41,1.56,TH,1714760981
165,kimbe,-5.5502,150.1429,297.98,94,79,1.5,PG,1714760981
166,sestri levante,44.2732,9.3968,289.61,88,74,0.45,IT,1714760982
167,broome,42.2506,-75.833,297.43,50,0,2.57,US,1714760982
168,santa ana,33.7456,-117.8678,293.35,75,100,2.06,US,1714760919
169,puli,23.9664,120.9695,297.16,88,65,1.44,TW,1714760982
170,vuosaari,60.2083,25.1436,288.5,43,0,1.03,FI,1714760982
171,tazovsky,67.4667,78.7,264.76,96,100,3.92,RU,1714760913
172,shingu,33.7333,135.9833,286.73,90,0,2.24,JP,1714760982
173,beni,0.5,29.4667,291.57,98,100,1.25,CD,1714760983
174,atafu village,-8.5421,-172.5159,301.99,77,100,3.31,TK,1714760983
175,imbituba,-28.24,-48.6703,296.96,95,100,1.37,BR,1714760983
176,tara,56.8944,74.371,275.26,64,63,3.78,RU,1714760983
177,kashgar,39.4547,75.9797,292.71,22,40,4.0,CN,1714760743
178,talnakh,69.4865,88.3972,260.87,94,100,2.49,RU,1714760983
179,gizo,-8.103,156.8419,299.57,89,100,3.42,SB,1714760983
180,balabac,7.9868,117.0645,300.8,78,65,3.28,PH,1714760984
181,pico truncado,-46.7949,-67.9573,283.37,47,82,11.27,AR,1714760727
182,isanlu-itedoijowa,8.2667,5.8333,302.15,65,100,1.21,NG,1714760984
183,sitka,57.0531,-135.33,290.09,29,40,6.17,US,1714760984
184,remire-montjoly,4.9167,-52.2667,300.17,94,100,2.57,GF,1714760984
185,usogorsk,63.4106,48.6872,271.3,87,96,3.36,RU,1714760984
186,chonchi,-42.6128,-73.8092,285.44,88,95,2.33,CL,1714760984
187,ocean shores,46.9737,-124.1563,288.96,76,0,5.14,US,1714760903
188,bredasdorp,-34.5322,20.0403,290.07,79,5,0.13,ZA,1714760985
189,itoigawa,37.0333,137.85,288.19,51,0,2.27,JP,1714760985
190,juegang,32.3174,121.1855,286.59,81,100,3.67,CN,1714760985
191,lalganj,25.8667,85.1833,303.12,10,54,2.38,IN,1714760985
192,ad dilam,23.9915,47.1627,304.38,19,0,3.21,SA,1714760985
193,palapye,-22.546,27.1251,292.91,47,0,3.68,BW,1714760985
194,loikaw,19.6742,97.2094,296.57,55,31,1.8,MM,1714760985
195,okhotsk,59.3833,143.3,272.88,88,91,2.11,RU,1714760985
196,erenhot,43.6475,111.9767,290.06,42,99,4.31,CN,1714760986
197,vorgashor,67.5833,63.95,255.82,100,94,1.37,RU,1714760986
198,angaur state,6.906,134.13,301.53,73,100,6.55,PW,1714760986
199,brisas de zicatela,15.8369,-97.0419,303.44,79,40,3.6,MX,1714760986
200,east london,-33.0153,27.9116,297.67,64,0,2.57,ZA,1714760986
201,taroa,8.7058,171.2275,300.81,85,93,8.68,MH,1714760986
202,celestun,20.8667,-90.4,307.61,39,70,2.58,MX,1714760986
203,gordonvale,-17.0936,145.7842,296.03,99,94,2.01,AU,1714760987
204,inarajan village,13.2736,144.7484,300.23,88,32,4.54,GU,1714760987
205,jinja,0.439,33.2032,293.78,83,93,2.67,UG,1714760987
206,tromso,69.6496,18.957,277.16,93,75,6.17,NO,1714760984
207,ataq,14.5377,46.8319,298.06,70,62,7.86,YE,1714760987
208,mangrol,21.1167,70.1167,300.15,86,8,6.56,IN,1714760987
209,orhei,47.3831,28.8231,294.14,50,89,6.48,MD,1714760987
210,port alfred,-33.5906,26.891,296.58,64,0,4.04,ZA,1714760987
211,atlantic,39.4668,-74.6663,285.18,79,100,6.69,US,1714760988
212,guerrero negro,27.9769,-114.0611,292.01,60,96,5.96,MX,1714760988
213,kairana,29.4,77.2,304.32,13,100,3.86,IN,1714760988
214,qarqaraly,49.4058,75.4742,283.08,49,39,1.98,KZ,1714760988
215,port blair,11.6667,92.75,301.17,83,20,1.03,IN,1714760988
216,aykhal,66.0,111.5,260.91,100,50,1.84,RU,1714760988
217,dong ha,16.8163,107.1003,297.6,93,92,0.68,VN,1714760988
218,koksan,38.7819,126.6664,285.85,63,0,1.36,KP,1714760988
219,ta`u,-14.2336,-169.5144,302.1,75,72,8.07,AS,1714760989
220,silver city,32.7701,-108.2803,296.85,18,0,4.63,US,1714760989
221,gobabis,-22.45,18.9667,292.51,20,3,5.55,NA,1714760989
222,panguipulli,-39.6333,-72.3333,277.69,98,100,2.59,CL,1714760989
223,tirumala,13.6833,79.35,298.24,65,69,3.11,IN,1714760989
224,buala,-8.145,159.5921,300.35,86,100,2.8,SB,1714760989
225,happy valley-goose bay,53.3168,-60.3315,277.32,75,75,7.2,CA,1714760989
226,manismata,-2.4667,111.0333,296.76,99,100,0.83,ID,1714760989
227,melfi,40.9965,15.6514,284.53,88,68,3.43,IT,1714760990
228,chiredzi,-21.05,31.6667,293.44,70,3,2.96,ZW,1714760990
229,fuling,29.7022,107.3919,288.78,97,100,0.64,CN,1714760990
230,conde,-7.2597,-34.9075,303.85,70,40,6.17,BR,1714760990
231,lethem,3.3803,-59.7968,300.69,75,100,0.59,GY,1714760990
232,honiara,-9.4333,159.95,299.89,89,100,1.85,SB,1714760990
233,kavaratti,10.5669,72.642,303.26,64,46,2.76,IN,1714760990
234,moose jaw,50.4001,-105.5344,278.3,93,100,9.26,CA,1714760990
235,moyynkum,44.2914,72.9469,294.07,43,100,3.8,KZ,1714760991
236,saudarkrokur,65.7461,-19.6394,283.21,65,88,2.56,IS,1714760991
237,mount gambier,-37.8333,140.7667,281.44,91,64,1.57,AU,1714760991
238,tindouf,27.6711,-8.1474,306.4,5,0,6.17,DZ,1714760991
239,afaahiti,-17.75,-149.2833,300.08,82,100,9.75,PF,1714760991
240,sho'rchi,38.0141,67.7899,292.9,53,100,3.86,UZ,1714760991
241,cockburn town,21.4612,-71.1419,297.26,79,99,8.71,TC,1714760991
242,san angelo,31.4638,-100.437,305.27,44,20,5.14,US,1714760852
243,ampere,-25.915,-53.4728,301.64,52,90,4.02,BR,1714760991
244,la foa,-21.7108,165.8276,292.23,74,58,1.32,NC,1714760992
245,urzhar,47.093,81.6294,286.31,47,24,3.03,KZ,1714760992
246,nova sintra,14.8667,-24.7167,296.61,80,0,11.3,CV,1714760992
247,changli,39.7042,119.1506,287.11,47,94,0.89,CN,1714760992
248,freetown,8.484,-13.2299,301.9,78,98,4.77,SL,1714760992
249,borgo,46.0514,11.4544,288.25,82,100,1.2,IT,1714760992
250,marsabit,2.3284,37.9899,294.75,78,91,1.37,KE,1714760993
251,gornopravdinsk,60.05,69.9,273.06,97,100,4.81,RU,1714760993
252,flin flon,54.7682,-101.865,279.06,65,100,3.6,CA,1714760993
253,sulphur,30.2366,-93.3774,295.14,92,100,4.63,US,1714760841
254,katsuren-haebaru,26.3369,127.8719,297.16,94,75,1.54,JP,1714760993
255,kudahuvadhoo,2.6708,72.8944,302.65,78,8,4.07,MV,1714760993
256,shimokizukuri,40.8061,140.3861,284.2,95,3,1.46,JP,1714760993
257,colonia,50.9333,6.95,289.28,60,0,2.06,DE,1714760971
258,mkushi,-13.6202,29.3939,289.13,63,3,2.36,ZM,1714760994
259,rio grande,-32.035,-52.0986,291.21,68,99,3.93,BR,1714760945
260,vielha,42.6846,0.7726,281.52,80,92,0.95,ES,1714760994
261,kettering,39.6895,-84.1688,295.56,77,100,3.6,US,1714760994
262,lewisville,33.0462,-96.9942,302.82,66,40,3.09,US,1714760990
263,sinop,41.7711,34.8709,283.7,90,100,1.73,TR,1714760994
264,gaigeturi,33.4644,126.3183,285.18,76,0,1.54,KR,1714760994
265,hilo,19.7297,-155.09,296.07,96,100,3.09,US,1714760994
266,kristiansund,63.1115,7.732,287.51,51,0,5.14,NO,1714760994
267,acapulco de juarez,16.8634,-99.8901,303.05,70,75,3.6,MX,1714760716
268,nemuro,43.3236,145.575,276.88,83,61,8.66,JP,1714760995
269,tshikapa,-6.4167,20.8,298.05,49,9,0.71,CD,1714760995
270,khandyga,62.6667,135.6,268.18,98,100,0.37,RU,1714760995
271,acarau,-2.8856,-40.12,302.22,78,99,5.89,BR,1714760995
272,kodinsk,58.6881,99.1844,277.84,97,100,2.81,RU,1714760995
273,fereydunshahr,32.941,50.121,277.37,91,97,3.08,IR,1714760995
274,ust'-kulom,61.6864,53.6902,268.56,78,96,2.14,RU,1714760995
275,kourou,5.1552,-52.6478,300.18,80,75,3.76,GF,1714760995
276,zhanaozen,43.3,52.8,291.59,38,100,7.61,KZ,1714760996
277,kotka,60.4664,26.9458,284.74,88,94,3.43,FI,1714760996
278,morondava,-20.2833,44.2833,299.44,58,0,5.23,MG,1714760996
279,gaoyou,32.7858,119.4278,287.42,72,100,5.71,CN,1714760996
280,colonia menno,-22.3667,-59.8167,291.35,83,100,3.39,PY,1714760996
281,belo sur tsiribihina,-19.7,44.55,297.71,80,0,2.27,MG,1714760996
282,la plata,-34.9215,-57.9545,289.16,47,64,2.87,AR,1714760709
283,san patricio,28.017,-97.5169,301.78,78,100,7.09,US,1714760997
284,laguna,38.421,-121.4238,297.31,37,0,6.17,US,1714760997
285,korla,41.7597,86.1469,292.24,17,52,0.98,CN,1714760997
286,solwezi,-12.1688,26.3894,288.99,64,21,2.14,ZM,1714760997
287,nolinsk,57.5596,49.9363,271.41,79,26,2.63,RU,1714760997
288,weatherford,32.7593,-97.7972,300.35,81,93,0.45,US,1714760760
289,parras de la fuente,25.4167,-102.1833,303.3,6,43,3.48,MX,1714760997
290,enewetak,11.3474,162.3373,300.47,82,100,8.07,MH,1714760997
291,vila franca do campo,37.7167,-25.4333,291.42,99,99,5.76,PT,1714760998
292,qamdo,31.1667,97.2333,272.34,47,14,1.34,CN,1714760998
293,conduaga,8.862,117.4893,298.61,87,93,1.31,PH,1714760998
294,at taraf,25.3628,49.725,303.45,28,18,4.38,SA,1714760999
295,tot'ma,59.9747,42.7642,271.11,53,15,2.16,RU,1714760999
296,kargasok,59.0556,80.8572,270.91,62,45,2.68,RU,1714760999
297,nuuk,64.1835,-51.7216,270.49,46,0,10.29,GL,1714760999
298,camaguey,21.3808,-77.9169,304.34,55,75,8.23,CU,1714760999
299,malax,62.9423,21.5731,284.12,50,0,3.6,FI,1714760999
300,cianorte,-23.6633,-52.605,304.94,34,94,3.3,BR,1714760999
301,aasiaat,68.7098,-52.8699,265.96,75,72,1.37,GL,1714761000
302,kaa-khem,51.6833,94.7333,287.82,50,100,2.24,RU,1714761000
303,kailua-kona,19.6406,-155.9956,298.3,78,0,0.0,US,1714760916
304,vadso,70.0744,29.7487,274.64,80,75,5.14,NO,1714761000
305,saldanha,-33.0117,17.9442,290.18,88,55,1.72,ZA,1714761000
306,quelimane,-17.8786,36.8883,299.12,83,20,3.21,MZ,1714761000
307,manaure,11.7751,-72.4445,302.62,72,100,6.23,CO,1714761000
308,san andres,12.5847,-81.7006,304.16,62,20,3.6,CO,1714761001
309,weligama,5.9667,80.4167,301.32,85,2,1.7,LK,1714761001
310,cabedelo,-6.9811,-34.8339,304.52,73,82,5.7,BR,1714760741
311,severo-yeniseyskiy,60.3725,93.0408,266.25,97,92,1.79,RU,1714761001
312,tolanaro,-25.0319,46.9987,295.19,83,40,6.17,MG,1714761001
313,kalmunai,7.4167,81.8167,301.78,85,64,5.68,LK,1714761001
314,chipiona,36.7366,-6.437,295.25,55,0,5.66,ES,1714761001
315,amungan,15.3652,119.9582,301.0,66,14,1.87,PH,1714761002
316,soio,-6.1349,12.3689,300.11,90,100,4.18,AO,1714761002
317,coahuayana de hidalgo,18.7,-103.6583,306.02,40,3,4.05,MX,1714761002
318,polyarnyy,69.1989,33.4478,270.51,84,99,0.95,RU,1714761002
319,nkhotakota,-12.9274,34.2961,296.67,63,10,5.55,MW,1714761003
320,kindu,-2.95,25.95,295.52,94,100,0.97,CD,1714761003
321,zayed city,24.3768,54.589,302.59,69,0,3.6,AE,1714761003
322,west island,-12.1568,96.8225,301.14,89,40,5.14,CC,1714761003
323,kralendijk,12.15,-68.2667,304.14,74,75,6.17,BQ,1714761003
324,ratlam,23.3167,75.0667,304.49,10,87,1.8,IN,1714761004
325,al fuwayliq,26.4432,43.2534,299.1,17,0,8.35,SA,1714761004
326,vernon,50.2581,-119.2691,291.35,54,6,1.03,CA,1714760749
327,saint-louis,16.3333,-15.0,314.95,12,0,3.88,SN,1714761004
328,kone,-21.0595,164.8658,291.27,82,0,2.13,NC,1714761004
329,fada n'gourma,12.0622,0.3578,311.59,22,31,3.28,BF,1714761004
330,kawalu,-7.3817,108.2082,296.42,99,100,0.82,ID,1714761004
331,la ronge,55.1001,-105.2842,278.29,60,100,1.03,CA,1714761005
332,caleta de carquin,-11.0925,-77.6267,295.21,79,44,4.16,PE,1714761005
333,shevchenko,48.5,35.0,286.32,46,0,5.68,UA,1714761005
334,zakynthos,37.7914,20.8953,289.77,63,20,2.57,GR,1714761005
335,quellon,-43.1167,-73.6167,283.56,83,100,3.74,CL,1714761005
336,luderitz,-26.6481,15.1594,290.03,85,0,3.91,NA,1714761005
337,kerema,-7.9631,145.7785,298.4,83,89,1.39,PG,1714761005
338,umba,66.6871,34.3429,273.21,99,100,1.66,RU,1714761006
339,dunedin,-45.8742,170.5036,281.93,82,77,4.02,NZ,1714760722
340,maych'ew,12.7875,39.5422,289.37,90,15,1.99,ET,1714761006
341,gebeit,21.0667,36.3167,298.89,22,0,6.09,SD,1714761006
342,kiruna,67.8557,20.2251,278.66,70,0,2.06,SE,1714761006
343,hami,42.8,93.45,291.86,12,61,3.2,CN,1714761006
344,olinda,-8.0089,-34.8553,303.0,74,40,4.12,BR,1714760827
345,majene,-3.5403,118.9707,297.72,90,100,0.48,ID,1714761007
346,bengkulu,-3.8004,102.2655,298.49,94,100,2.69,ID,1714761007
347,suntar,62.1444,117.6319,263.27,100,92,0.48,RU,1714761007
348,xilin hot,43.9667,116.0333,289.29,30,100,7.48,CN,1714761007
349,amursk,50.2261,136.8994,276.47,87,100,1.96,RU,1714761007
350,port lincoln,-34.7333,135.8667,286.68,77,2,3.26,AU,1714761008
351,sandnessjoen,66.0217,12.6316,286.44,76,40,6.69,NO,1714761008
352,fada,9.5667,8.3,297.23,81,100,2.07,NG,1714761008
353,prince rupert,54.3161,-130.3201,287.2,62,0,2.57,CA,1714761008
354,labuan,5.2767,115.2417,300.35,89,20,0.0,MY,1714761008
355,trabzon,40.9167,39.8333,284.2,94,75,0.0,TR,1714761009
356,malpe,13.35,74.7167,302.76,72,100,1.28,IN,1714761009
357,kavieng,-2.5744,150.7967,301.15,81,89,2.85,PG,1714761009
358,balpyk bi,44.8947,78.2083,288.3,41,100,2.16,KZ,1714761009
359,koundara,12.4833,-13.3,311.33,18,0,1.44,GN,1714761009
360,la passe,45.5549,-0.8967,286.28,82,100,4.89,FR,1714761010
361,joaima,-16.6542,-41.0306,305.12,38,0,3.07,BR,1714761010
362,veraval,20.9,70.3667,299.87,85,6,5.75,IN,1714761010
363,pangai,-19.8,-174.35,299.21,94,40,2.57,TO,1714761010
364,pallasovka,50.05,46.8833,277.21,37,1,7.19,RU,1714761010
365,sabana de torres,7.3915,-73.4957,306.49,66,41,1.55,CO,1714761010
366,butterworth,5.3991,100.3638,301.51,86,40,3.09,MY,1714761010
367,macapa,0.0389,-51.0664,305.14,66,20,4.12,BR,1714760960
368,cole harbour,44.6724,-63.4751,283.11,72,100,9.26,CA,1714761011
369,prado,-17.3411,-39.2208,300.77,76,14,3.24,BR,1714761011
370,kaduna,10.5222,7.4383,302.18,51,39,3.63,NG,1714761011
371,port saint john's,-31.6229,29.5448,296.05,73,0,4.7,ZA,1714761012
372,oranjemund,-28.55,16.4333,289.75,85,0,1.63,NA,1714761012
373,vila velha,-20.3297,-40.2925,305.35,99,0,5.14,BR,1714761012
374,den burg,53.0542,4.7972,284.8,89,100,9.26,NL,1714761012
375,hornell,42.3279,-77.6611,300.01,45,100,3.48,US,1714761013
376,peace river,56.2501,-117.286,287.32,30,20,1.54,CA,1714760950
377,mersing,2.4312,103.8405,298.1,94,20,3.09,MY,1714761013
378,anadyr,64.75,177.4833,266.43,73,0,9.0,RU,1714761013
379,gulf shores,30.246,-87.7008,303.36,78,20,4.63,US,1714760950
380,shipunovo,52.1582,82.2173,280.92,88,99,3.73,RU,1714761013
381,mili,6.0815,171.735,301.22,83,97,8.49,MH,1714761013
382,island harbour,50.724,-1.2758,287.16,76,100,2.68,GB,1714761013
383,coquimbo,-29.9533,-71.3436,288.0,62,0,5.14,CL,1714760959
384,jezowe,50.3749,22.1275,294.64,67,100,2.3,PL,1714761014
385,matoury,4.8483,-52.3317,300.13,94,100,2.57,GF,1714761014
386,tangier,35.7806,-5.8137,292.79,56,0,2.06,MA,1714760909
387,nyrob,60.733,56.7202,268.87,69,5,3.35,RU,1714761014
388,kapuskasing,49.4169,-82.4331,285.2,94,100,5.14,CA,1714761014
389,tobelo,1.7284,128.0095,300.16,84,100,2.52,ID,1714761015
390,moapa valley,36.5805,-114.4703,302.34,10,0,2.37,US,1714760719
391,mashhad,36.297,59.6062,289.23,88,40,0.0,IR,1714761015
392,woodstock,43.1334,-80.7497,289.01,83,98,0.45,CA,1714760791
393,shangrao,28.4532,117.9686,291.69,99,100,2.01,CN,1714761015
394,nar'yan-mar,67.6713,53.087,267.1,92,100,2.24,RU,1714761015
395,punaauia,-17.6333,-149.6,300.95,74,0,2.57,PF,1714761015
396,kill devil hills,36.0307,-75.676,297.16,71,0,4.12,US,1714760802
397,kurumkan,54.3,110.3,278.78,65,2,1.79,RU,1714761016
398,tralee,52.2704,-9.7026,283.1,91,100,1.39,IE,1714761016
399,anar darah,32.7587,61.654,293.01,69,51,1.59,AF,1714761016
400,broken hill,-31.95,141.4333,282.42,99,26,4.43,AU,1714761016
401,paea,-17.6833,-149.5833,300.99,74,0,2.57,PF,1714761016
402,saipan,15.1355,145.701,299.54,83,0,3.09,MP,1714761016
403,fort bragg,35.139,-79.006,304.51,42,40,4.12,US,1714761016
404,lamu,-2.2717,40.902,301.11,82,99,6.83,KE,1714761017
405,praia da vitoria,38.7333,-27.0667,292.29,88,75,6.77,PT,1714761017
406,sisimiut,66.9395,-53.6735,268.03,72,98,9.21,GL,1714761017
407,bonthe,7.5264,-12.505,302.06,78,99,4.37,SL,1714761017
408,pacocha,-17.5833,-71.3333,294.23,78,100,6.69,PE,1714761017
409,mejit,10.2753,170.8646,300.59,84,100,8.87,MH,1714761017
410,lepsy,46.235,78.9456,291.21,28,100,1.91,KZ,1714761017
411,singkil,-7.9855,111.4161,297.56,91,44,1.93,ID,1714761017
412,rawson,-43.3002,-65.1023,287.9,33,95,7.22,AR,1714761018
413,port moresby,-9.4431,147.1797,297.83,100,20,1.54,PG,1714760895
414,cabo san lucas,22.8909,-109.9124,301.82,57,0,3.09,MX,1714761018
415,touros,-5.1989,-35.4608,301.33,81,97,5.64,BR,1714760833
416,yamba,-5.9,22.3,296.32,59,9,1.52,CD,1714761018
417,menongue,-14.6585,17.691,290.65,43,11,1.38,AO,1714760960
418,awjilah,29.1081,21.2869,300.28,15,6,4.09,LY,1714761018
419,ouesso,1.6136,16.0517,297.19,78,54,1.4,CG,1714761019
420,mangai,-4.05,19.5333,299.67,55,96,0.74,CD,1714761019
421,daru,-9.0763,143.2092,298.96,94,100,6.88,PG,1714761019
422,punta arenas,-53.15,-70.9167,278.21,93,100,2.06,CL,1714760877
423,xam nua,20.4197,104.0439,291.76,86,2,1.57,LA,1714761019
424,springbok,-29.6643,17.8865,291.23,45,80,2.44,ZA,1714761019
425,al bawiti,28.3492,28.8659,298.59,21,0,3.18,EG,1714761019
426,mitsamiouli,-11.3847,43.2844,301.33,77,100,7.07,KM,1714761020
427,camarinas,43.1311,-9.1817,288.11,96,100,11.52,ES,1714761020
428,aldama,22.9167,-98.0667,305.58,40,0,6.0,MX,1714761020
429,quang ngai,15.1167,108.8,297.77,89,92,2.41,VN,1714761020
430,meadow lake,34.8014,-106.5436,298.12,19,0,3.77,US,1714761020
431,belur,13.1667,75.8667,296.25,77,100,1.97,IN,1714761021
432,callao,-12.0667,-77.15,295.31,78,75,3.09,PE,1714760815
433,pangkalanbuun,-2.6833,111.6167,297.1,100,100,0.8,ID,1714761021
434,cozumel,20.5083,-86.9458,305.19,63,40,4.12,MX,1714760845
435,tlaltenango de sanchez roman,21.7833,-103.3167,305.63,9,5,6.28,MX,1714761021
436,carriere,10.0341,-12.8657,304.67,42,43,2.8,GN,1714761021
437,shimoda,34.6667,138.95,288.21,79,0,3.39,JP,1714761022
438,kununurra,-15.7667,128.7333,296.14,68,63,2.57,AU,1714761022
439,basco,20.4487,121.9702,300.88,79,18,5.47,PH,1714761022
440,east ballina,-28.8667,153.5833,289.15,76,63,0.92,AU,1714761022
441,higuera de zaragoza,25.95,-109.2833,300.11,34,100,5.0,MX,1714761023
442,grand gaube,-20.0064,57.6608,297.37,86,90,3.07,MU,1714761023
443,paka,4.6374,103.4368,300.11,89,59,2.57,MY,1714761023
444,pavilosta,56.8879,21.1859,286.1,74,23,3.95,LV,1714761023
445,paramonga,-10.6667,-77.8333,295.07,79,63,4.27,PE,1714761024
446,nannilam,10.8793,79.6106,303.28,81,100,5.14,IN,1714761024
447,greenland,43.0362,-70.8328,290.64,70,75,4.12,US,1714761024
448,nova vicosa,-17.8919,-39.3719,301.63,72,9,3.66,BR,1714761024
449,dryden,49.7833,-92.7503,281.31,87,100,8.23,CA,1714761025
450,helsa,51.2667,9.6833,284.84,80,100,1.37,DE,1714761025
451,corner brook,48.9667,-57.9484,277.24,96,100,4.46,CA,1714761007
452,isaka,-3.9,32.9333,293.38,73,100,2.65,TZ,1714761025
453,tidjikja,18.5564,-11.4271,307.71,11,0,4.56,MR,1714761025
454,campbell river,50.0163,-125.2446,287.92,58,75,6.17,CA,1714761025
455,sirte,31.2089,16.5887,292.48,73,0,5.27,LY,1714761025
456,salekhard,66.53,66.6019,256.7,91,47,1.34,RU,1714761026
457,guneysu,40.9776,40.6136,285.96,96,100,0.23,TR,1714761026
458,necochea,-38.5473,-58.7368,288.64,31,1,4.26,AR,1714760788
459,howrah,22.5892,88.3103,304.15,84,40,6.17,IN,1714761026
460,taulaga,-11.0553,-171.0883,302.04,81,100,6.14,AS,1714761026
461,puerto gaitan,4.3133,-72.0816,303.95,65,97,1.4,CO,1714760790
462,aswan,24.0934,32.907,304.75,17,0,6.07,EG,1714760865
463,sao joao da barra,-21.6403,-41.0511,309.2,74,0,3.36,BR,1714761027
464,sinabang,2.4803,96.3801,298.81,94,100,3.76,ID,1714761027
465,morehead city,34.7229,-76.726,302.16,71,0,5.14,US,1714760838
466,barra de santo antonio,-9.4047,-35.5072,303.75,67,11,4.01,BR,1714761027
467,pathein,16.7833,94.7333,301.69,77,25,4.05,MM,1714761027
468,drayton valley,53.2168,-114.9854,281.96,64,59,2.74,CA,1714760977
469,castillos,-34.1667,-53.8333,287.45,57,39,2.92,UY,1714761028
470,charleston,32.7766,-79.9309,303.72,64,0,4.12,US,1714760767
471,alice springs,-23.7,133.8833,280.9,76,0,2.57,AU,1714761028
472,mil'kovo,55.6078,37.7956,280.56,44,0,2.97,RU,1714761028
473,bandarbeyla,9.4942,50.8122,301.85,66,100,3.56,SO,1714761028
474,horta,38.5333,-28.6333,290.95,93,75,10.8,PT,1714761028
475,pandaria,22.2333,81.4167,301.8,11,57,2.15,IN,1714761028
476,taoudenni,22.6783,-3.9836,307.05,5,0,2.77,ML,1714761029
477,obock,12.25,43.0833,299.88,68,20,2.32,DJ,1714761029
478,juan de ayolas,-27.4,-56.9,290.72,97,100,2.47,PY,1714760998
479,richmond,37.5538,-77.4603,304.39,57,75,4.12,US,1714760929
480,novyy urgal,51.0736,132.5642,273.9,62,76,1.03,RU,1714761029
481,ikwiriri,-7.9562,38.9716,295.8,96,100,4.39,TZ,1714761029
482,el granada,37.5027,-122.4694,297.38,62,0,4.12,US,1714761029
483,castel di sangro,41.7737,14.1035,283.17,91,78,2.07,IT,1714761030
484,port pirie,-33.1833,138.0167,285.02,52,0,1.96,AU,1714761030
485,tarawa,1.419,172.984,301.2,83,20,2.57,KI,1714761030
486,cannonvale,-20.2833,148.7,294.81,87,95,4.97,AU,1714761030
487,ghadamis,30.1337,9.5007,301.94,10,0,6.8,LY,1714761030
488,tanah merah,5.8,102.15,302.05,99,48,0.43,MY,1714761030
489,sheksna,59.21,38.5107,274.13,48,7,2.4,RU,1714761030
490,mao,39.8885,4.2658,290.46,88,0,2.57,ES,1714761031
491,magadan,59.5667,150.8,269.56,88,49,2.75,RU,1714761031
492,frontera,26.9333,-101.45,305.87,38,0,3.78,MX,1714761031
493,hirara,24.8,125.2833,297.07,94,20,2.06,JP,1714761031
494,ciudad lazaro cardenas,17.9583,-102.2,301.79,55,0,4.44,MX,1714761031
495,libreville,0.3925,9.4537,301.16,89,40,1.54,GA,1714761031
496,iwanai,42.9744,140.5089,278.8,70,12,2.7,JP,1714761031
497,lebu,-37.6167,-73.65,284.12,86,100,9.51,CL,1714761032
498,sabha,27.0377,14.4283,303.15,26,100,4.56,LY,1714761032
499,adis zemen,12.1167,37.7833,296.51,17,100,3.65,ET,1714761032
500,kapa'a,22.0752,-159.319,300.14,78,100,8.23,US,1714760817
501,sabaneta,6.15,-75.6,299.13,63,40,4.63,CO,1714761032
502,praya,14.9215,-23.5087,300.45,54,20,11.83,CV,1714761032
503,olavarria,-36.8927,-60.3225,286.94,45,52,4.63,AR,1714760793
504,lyozna,55.0249,30.7956,280.54,63,25,2.26,BY,1714761032
505,napili-honokowai,20.9708,-156.6705,298.9,91,64,7.59,US,1714761033
506,aioun,16.6614,-9.6149,309.69,12,20,3.91,MR,1714761033
507,arraial do cabo,-22.9661,-42.0278,300.13,83,0,5.66,BR,1714761033
508,alappuzha,9.49,76.3264,302.69,82,72,3.22,IN,1714761033
509,eduardo castex,-35.915,-64.2945,290.73,46,2,6.36,AR,1714761033
510,ushtobe,45.2514,77.9838,290.09,33,100,4.11,KZ,1714761033
511,qianjiang,30.4151,112.8859,287.18,94,100,4.06,CN,1714761033
512,alma,48.5501,-71.6491,289.87,52,100,3.6,CA,1714760894
513,barcelos,41.5388,-8.6151,288.23,94,100,5.35,PT,1714760994
514,sao felix do xingu,-6.6447,-51.995,304.02,62,99,2.41,BR,1714761034
515,kirakira,-10.4544,161.9205,299.59,89,100,3.41,SB,1714761034
516,slyudyanka,51.6594,103.7061,275.34,96,97,1.14,RU,1714761034
517,rockland,41.1668,-74.0496,293.09,61,84,1.34,US,1714761034
518,anna regina,7.2644,-58.5077,302.13,72,100,4.0,GY,1714761034
519,taltal,-25.4,-70.4833,289.78,68,31,2.14,CL,1714761035
520,chibougamau,49.9168,-74.3659,286.94,54,100,5.14,CA,1714761035
521,kurtamysh,54.9103,64.4319,280.68,68,7,1.34,RU,1714761035
522,hovd,48.0056,91.6419,284.0,27,41,2.98,MN,1714761035
523,grand falls-windsor,48.9332,-55.6649,277.32,94,100,2.68,CA,1714761035
524,langepas,61.2544,75.2124,266.13,88,99,3.26,RU,1714761035
525,aiquile,-18.2041,-65.1807,292.87,56,100,4.35,BO,1714761036
526,conception bay south,47.4999,-52.9981,279.77,92,100,3.6,CA,1714761036
527,debark',13.1561,37.8981,290.98,17,37,1.15,ET,1714761036
528,tual,-5.6667,132.75,301.36,80,100,3.8,ID,1714761036
529,illizi,26.4833,8.4667,308.04,25,98,3.63,DZ,1714761036
530,siracusa,37.0881,15.2792,292.8,50,8,4.64,IT,1714760789
531,villa gesell,-37.2639,-56.973,289.85,43,3,4.49,AR,1714761036
532,kita,13.0349,-9.4895,313.98,8,55,3.29,ML,1714760826
533,choyr,46.3611,108.3611,279.86,57,39,4.43,MN,1714761036
534,city of isabela,6.7085,121.9711,298.18,82,100,1.5,PH,1714761037
535,bamnet narong,15.4992,101.6897,302.16,56,30,6.2,TH,1714761037
536,rolla,37.9514,-91.7713,294.23,82,100,3.09,US,1714761037
537,keelung,25.1283,121.7419,297.09,93,100,3.5,TW,1714761037
538,malya,-2.9833,33.5167,294.17,72,100,1.12,TZ,1714761037
539,madang,-5.2246,145.7966,298.18,92,100,2.01,PG,1714761037
540,kosh-agach,50.0,88.6667,278.88,49,90,2.68,RU,1714761037
541,lusambo,-4.9667,23.45,297.01,65,99,0.44,CD,1714761038
542,cill airne,52.05,-9.5167,282.99,91,99,0.99,IE,1714761038
543,mhamid,29.82,-5.72,302.64,5,0,4.27,MA,1714761038
544,mount pearl,47.5166,-52.7813,279.44,94,100,7.2,CA,1714761038
545,corumba,-19.0092,-57.6533,307.99,58,20,3.09,BR,1714761011
546,tsetserleg,47.475,101.4542,277.53,32,6,1.34,MN,1714761038
547,flying fish cove,-10.4217,105.6791,299.97,83,40,4.63,CX,1714761038
548,porto novo,6.4965,2.6036,302.05,80,100,2.68,BJ,1714761038
549,hassi messaoud,31.6804,6.0729,304.07,14,0,2.57,DZ,1714761038
550,meraux,29.933,-89.9498,296.18,79,100,3.09,US,1714761039
551,midvagur,62.0511,-7.1939,284.61,76,2,9.26,FO,1714761039
552,elko,41.0002,-115.5012,283.28,35,0,0.89,US,1714761039
553,cifteler,39.3831,31.0392,285.41,70,52,3.45,TR,1714761039
554,okha,53.5739,142.9478,272.18,79,26,2.24,RU,1714761039
555,margate,51.3813,1.3862,285.43,76,100,2.68,GB,1714761039
556,dera bugti,29.0307,69.151,303.43,18,57,1.5,PK,1714761039
557,comodoro rivadavia,-45.8667,-67.5,285.07,47,0,9.26,AR,1714760820
558,egilsstadir,65.2653,-14.3948,278.1,87,75,4.63,IS,1714761040
559,pruzhany,52.5567,24.4644,287.22,73,98,3.29,BY,1714761040
560,karabash,55.4808,60.2157,273.06,89,98,1.51,RU,1714761040
561,galliano,29.4422,-90.2992,296.15,88,100,1.54,US,1714761040
562,bijie,27.3125,105.2942,283.64,95,100,1.87,CN,1714761040
563,puerto baquerizo moreno,-0.9,-89.6,302.7,66,20,4.63,EC,1714761040
564,labytnangi,66.6572,66.4183,256.69,91,42,1.77,RU,1714761041
565,baruun-urt,46.6806,113.2792,285.59,29,78,8.3,MN,1714761041
566,curuzu cuatia,-29.7917,-58.0546,288.0,84,100,6.22,AR,1714761041
567,olney,39.1532,-77.0669,298.5,63,0,3.6,US,1714761041
568,bodo,67.28,14.405,280.9,81,75,2.57,NO,1714761041
569,madalena,41.2162,-8.3345,288.57,82,98,4.6,PT,1714761041
570,salida,37.7058,-121.0849,296.54,46,0,6.17,US,1714760834
571,chinde,26.8418,88.0763,291.65,14,86,3.25,NP,1714761041
572,ji'an,27.1172,114.9793,291.65,97,100,1.96,CN,1714761042
573,zima,53.9202,102.0442,280.57,68,100,2.62,RU,1714761042
574,robinson,31.4677,-97.1147,297.33,81,100,4.12,US,1714761042
575,vila do maio,15.1333,-23.2167,300.59,80,0,5.88,CV,1714761042
576,paracuru,-3.41,-39.0306,303.21,85,100,4.52,BR,1714761042
577,denkanikota,12.5333,77.8,299.33,72,100,2.45,IN,1714761042
578,gaspe,48.8334,-64.4819,279.27,87,100,3.09,CA,1714760942
579,kalevala,65.2,31.1667,274.87,73,100,2.24,RU,1714761043
580,churapcha,62.0025,132.4325,274.56,79,100,1.85,RU,1714761043
581,altamira,-3.2033,-52.2064,305.2,70,40,2.57,BR,1714761025
582,lebedyn,50.5852,34.4849,281.97,60,1,4.72,UA,1714761043
583,bel ombre,-4.6167,55.4167,302.06,84,40,3.6,SC,1714761043
584,kalia,23.0396,89.6328,301.56,82,0,3.4,BD,1714761043
585,san rafael,-34.6177,-68.3301,290.34,26,0,3.55,AR,1714760795
